City_ID,City,Lat,Lng,Max Temp,Humidity,Cloudiness,Wind Speed,Country,Date
0,port-aux-francais,-49.35,70.2167,5.95,96,99,7.23,TF,1712861770
1,iqaluit,63.7506,-68.5145,-2.15,68,100,2.06,CA,1712862191
2,adamstown,-25.066,-130.1015,21.34,55,2,7.33,PN,1712861766
3,qamdo,31.1667,97.2333,-0.83,54,90,1.85,CN,1712862191
4,margaret river,-33.95,115.0667,13.39,76,5,5.31,AU,1712861781
5,novodvinsk,64.4165,40.8122,5.42,97,93,7.96,RU,1712861826
6,klyuchi,52.2667,79.1667,-0.58,84,100,6.51,RU,1712861769
7,kaiapoi,-43.3783,172.6401,11.15,96,100,7.72,NZ,1712862192
8,anadyr,64.75,177.4833,-16.72,77,0,3.0,RU,1712861794
9,grytviken,-54.2811,-36.5092,0.42,74,23,5.36,GS,1712861760
10,santana,-0.0583,-51.1817,31.1,74,75,3.6,BR,1712862150
11,huarmey,-10.0681,-78.1522,25.55,72,25,5.44,PE,1712861792
12,bredasdorp,-34.5322,20.0403,14.57,67,0,4.61,ZA,1712861781
13,tiksi,71.6872,128.8694,-28.15,95,23,5.54,RU,1712861795
14,sao joao da barra,-21.6403,-41.0511,31.05,78,3,4.39,BR,1712861782
15,tutoia,-2.7619,-42.2744,28.56,80,70,3.11,BR,1712862192
16,canacona,14.9959,74.0506,27.74,77,91,2.9,IN,1712862192
17,san patricio,28.017,-97.5169,30.09,21,0,5.25,US,1712861806
18,vorkuta,67.5,64.0,-9.38,87,100,12.07,RU,1712861802
19,ilulissat,69.2167,-51.1,-5.99,79,75,1.54,GL,1712861763
20,chonchi,-42.6128,-73.8092,17.56,44,0,1.17,CL,1712862164
21,utrik,11.2278,169.8474,26.71,75,100,9.16,MH,1712861789
22,nema,57.5067,50.5011,8.57,79,0,4.32,RU,1712862193
23,ushuaia,-54.8,-68.3,8.81,53,0,8.75,AR,1712861783
24,trinity beach,-16.7888,145.6968,20.01,93,38,5.66,AU,1712862193
25,waitangi,-43.9535,-176.5597,16.01,95,100,4.02,NZ,1712861766
26,faridpur,23.6,89.8333,30.2,35,100,1.45,BD,1712862193
27,yellowknife,62.456,-114.3525,1.9,83,75,6.69,CA,1712861680
28,bilibino,68.0546,166.4372,-18.64,99,100,0.49,RU,1712861787
29,choibalsan,48.0667,114.5,6.44,71,71,3.09,MN,1712862193
30,utiel,39.5667,-1.2,14.12,47,1,3.11,ES,1712862193
31,crixas,-14.5489,-49.9692,27.73,73,79,2.19,BR,1712862194
32,ujae,8.9322,165.7642,27.33,77,100,9.46,MH,1712862194
33,nishinoomote,30.7333,131.0,18.46,86,100,8.85,JP,1712862194
34,udachny,66.4167,112.4,-28.08,100,99,2.21,RU,1712861799
35,avarua,-21.2078,-159.775,28.03,83,100,6.69,CK,1712861788
36,jamestown,42.097,-79.2353,21.77,76,100,7.72,US,1712861672
37,mount isa,-20.7333,139.5,13.87,54,0,2.57,AU,1712861799
38,corinto,37.9407,22.9573,17.17,45,77,2.71,GR,1712862194
39,nova sintra,14.8667,-24.7167,22.84,73,3,6.76,CV,1712861786
40,invercargill,-46.4,168.35,7.79,90,100,2.65,NZ,1712861501
41,chifeng,42.2683,118.9636,16.83,50,100,6.13,CN,1712862195
42,villa gesell,-37.2639,-56.973,14.47,58,95,4.43,AR,1712861580
43,tarnogskiy gorodok,60.4997,43.5761,7.7,65,9,6.33,RU,1712862195
44,coquimbo,-29.9533,-71.3436,13.85,94,100,4.12,CL,1712861620
45,bamboo flat,11.7,92.7167,29.05,89,1,1.03,IN,1712862195
46,la'ie,21.6477,-157.9253,25.98,81,100,4.92,US,1712862195
47,bethel,41.3712,-73.414,14.8,87,100,1.79,US,1712861766
48,hasaki,35.7333,140.8333,14.22,77,100,4.38,JP,1712861854
49,puerto natales,-51.7236,-72.4875,11.25,50,0,4.63,CL,1712862148
50,port mathurin,-19.6833,63.4167,25.05,94,75,1.03,MU,1712861718
51,lorengau,-2.0226,147.2712,26.3,86,100,0.81,PG,1712861777
52,ribeira grande,38.5167,-28.7,17.22,88,40,3.6,PT,1712861773
53,mount gambier,-37.8333,140.7667,12.51,64,100,1.72,AU,1712861768
54,albany,42.6001,-73.9662,14.21,80,100,1.79,US,1712862002
55,brisas de zicatela,15.8369,-97.0419,29.7,69,86,4.4,MX,1712862196
56,holualoa,19.6228,-155.9522,24.37,86,75,2.06,US,1712861823
57,tasova,40.7597,36.3225,12.94,88,100,0.3,TR,1712862196
58,flying fish cove,-10.4217,105.6791,26.82,89,75,4.12,CX,1712861813
59,borogontsy,62.6683,131.1683,0.51,98,100,2.88,RU,1712862196
60,west island,-12.1568,96.8225,26.99,78,68,3.09,CC,1712861785
61,naliya,23.2667,68.8333,25.3,81,0,4.45,IN,1712862197
62,arkhangel'sk,64.5401,40.5433,5.62,64,75,10.0,RU,1712861836
63,hawaiian paradise park,19.5933,-154.9731,22.24,98,100,3.6,US,1712861763
64,salinas,36.6777,-121.6555,28.88,61,0,2.57,US,1712862170
65,tayshet,55.9342,98.0044,-1.56,97,100,2.22,RU,1712862197
66,kapa'a,22.0752,-159.319,25.99,92,75,1.54,US,1712861775
67,rongelap,11.1635,166.8941,26.81,78,100,9.15,MH,1712861784
68,vilyuchinsk,52.9306,158.4028,-0.85,81,6,4.71,RU,1712861786
69,al mindak,20.1588,41.2834,19.78,71,100,1.14,SA,1712862197
70,san antonio de pale,-1.4014,5.6325,26.78,84,100,8.32,GQ,1712861799
71,priozersk,61.0393,30.1291,6.72,85,100,6.56,RU,1712862197
72,crucecita,-28.95,-58.9833,17.69,83,100,5.97,AR,1712862197
73,vila franca do campo,37.7167,-25.4333,18.27,99,6,2.16,PT,1712862198
74,anajatuba,-3.2644,-44.6197,28.59,82,100,0.62,BR,1712862198
75,hamilton,39.1834,-84.5333,20.21,89,100,4.12,US,1712861537
76,college,64.8569,-147.8028,2.87,59,100,2.06,US,1712861785
77,muncar,-8.4333,114.3333,23.66,93,92,0.93,ID,1712862198
78,otra banda,18.6502,-68.6628,31.71,54,92,6.57,DO,1712862198
79,khovd,48.0056,91.6419,6.33,44,100,1.05,MN,1712862198
80,whitehorse,60.7161,-135.0538,5.05,51,20,3.6,CA,1712861766
81,iskateley,67.6803,53.1512,1.68,100,100,7.6,RU,1712862198
82,east ballina,-28.8667,153.5833,15.44,88,100,4.95,AU,1712862199
83,bayganin,48.6947,55.8742,10.48,61,98,2.86,KZ,1712861853
84,alice springs,-23.7,133.8833,12.34,56,1,2.57,AU,1712861804
85,carnarvon,-24.8667,113.6333,21.69,63,100,10.35,AU,1712861816
86,alofi,-19.0595,-169.9187,22.94,100,75,0.51,NU,1712862199
87,howrah,22.5892,88.3103,27.0,57,40,1.54,IN,1712862199
88,faro,37.0194,-7.9322,22.88,53,0,2.57,PT,1712861691
89,sinjar,36.3209,41.8754,17.68,51,0,1.49,IQ,1712862199
90,zambezi,-13.5432,23.1047,19.62,83,98,1.73,ZM,1712862199
91,tari,12.4086,4.4914,36.32,7,100,3.27,NG,1712861794
92,aguas verdes,-3.4814,-80.245,32.95,62,40,4.63,PE,1712862199
93,hammerfest,70.6634,23.6821,1.25,93,75,3.6,NO,1712862200
94,chibougamau,49.9168,-74.3659,14.79,41,0,4.12,CA,1712862051
95,majene,-3.5403,118.9707,24.0,95,100,1.49,ID,1712862200
96,popondetta,-8.7537,148.2534,23.8,96,93,1.16,PG,1712862200
97,omoku,5.3435,6.6532,25.09,76,99,3.01,NG,1712862200
98,mirny,62.5353,113.9611,-26.27,100,99,1.8,RU,1712862200
99,tidjikja,18.5564,-11.4271,35.92,12,0,4.28,MR,1712862200
100,boysun,38.2061,67.1986,16.54,42,100,2.22,UZ,1712862200
101,remire-montjoly,4.9167,-52.2667,31.02,70,75,6.17,GF,1712861794
102,ust'-ordynskiy,52.805,104.7508,1.85,92,100,5.28,RU,1712862200
103,papatowai,-46.5619,169.4708,7.29,88,100,2.88,NZ,1712862200
104,cuyo,10.8525,121.0086,28.15,75,100,8.9,PH,1712862201
105,santiago de cao,-7.9589,-79.2392,23.07,78,56,5.66,PE,1712862201
106,mili,6.0815,171.735,27.03,87,100,8.34,MH,1712862201
107,east london,-33.0153,27.9116,14.52,82,20,8.75,ZA,1712861795
108,phra phutthabat,14.7253,100.7954,30.98,78,3,3.07,TH,1712862201
109,badger,64.8,-147.5333,2.82,63,100,2.06,US,1712861779
110,port saint john's,-31.6229,29.5448,16.94,63,10,7.23,ZA,1712862201
111,naze,28.3667,129.4833,18.51,85,81,0.71,JP,1712862201
112,vila velha,-20.3297,-40.2925,30.97,81,20,4.63,BR,1712861687
113,nar'yan-mar,67.6713,53.087,1.73,100,100,7.6,RU,1712861775
114,kerikeri,-35.2268,173.9474,19.95,95,100,0.65,NZ,1712861778
115,afaahiti,-17.75,-149.2833,27.93,85,100,7.76,PF,1712861852
116,mundemba,4.9479,8.8724,26.49,85,99,1.62,CM,1712862202
117,kayangel,8.0823,134.7173,27.85,75,13,5.92,PW,1712861797
118,punta arenas,-53.15,-70.9167,10.06,53,0,11.83,CL,1712861623
119,bikenibeu village,1.3673,173.1241,26.98,89,40,1.54,KI,1712861850
120,nyala,12.05,24.8833,29.99,9,5,4.37,SD,1712862202
121,weyburn,49.6668,-103.8511,8.12,42,1,5.66,CA,1712861970
122,white center,47.5173,-122.3549,14.83,64,75,3.58,US,1712861925
123,fort-shevchenko,44.5086,50.263,13.33,62,5,5.76,KZ,1712862202
124,san rafael,-34.6177,-68.3301,9.25,74,99,3.9,AR,1712862202
125,talnakh,69.4865,88.3972,-26.0,98,97,3.15,RU,1712861856
126,thompson,55.7435,-97.8558,2.09,75,100,4.63,CA,1712861825
127,southampton,50.904,-1.4043,15.02,92,75,4.12,GB,1712861978
128,springbok,-29.6643,17.8865,20.25,30,5,7.89,ZA,1712862140
129,san luis de la loma,17.2706,-100.8939,29.86,57,0,4.07,MX,1712862203
130,urzhar,47.093,81.6294,6.96,97,100,0.61,KZ,1712862203
131,vorgashor,67.5833,63.95,-9.55,87,100,11.9,RU,1712861817
132,wladyslawowo,54.7909,18.4009,14.71,79,100,8.39,PL,1712862203
133,petropavlovsk-kamchatsky,53.0452,158.6483,-1.67,71,0,11.62,RU,1712861781
134,longyearbyen,78.2186,15.6401,-13.09,61,0,4.12,SJ,1712861536
135,hualahuises,24.8847,-99.6733,30.22,14,47,3.93,MX,1712862203
136,taroa,8.7058,171.2275,27.26,79,100,8.76,MH,1712862203
137,at-bashi,41.1702,75.8106,8.43,30,100,1.66,KG,1712862203
138,siwa oasis,29.2041,25.5195,23.79,18,0,3.68,EG,1712862203
139,tolanaro,-25.0319,46.9987,24.04,83,40,3.09,MG,1712861796
140,edinburgh of the seven seas,-37.0676,-12.3116,18.05,96,95,4.62,SH,1712862204
141,nabire,-3.3667,135.4833,23.98,96,100,0.57,ID,1712861763
142,broken hill,-31.95,141.4333,11.54,64,3,3.37,AU,1712861817
143,agadez,19.75,10.25,31.59,8,100,5.29,NE,1712862204
144,codrington,-38.2667,141.9667,13.47,70,98,3.31,AU,1712861807
145,la sarre,48.8002,-79.1996,12.67,58,100,3.54,CA,1712861977
146,exu,-7.5119,-39.7242,29.32,54,98,3.41,BR,1712862204
147,hermanus,-34.4187,19.2345,14.89,70,12,7.9,ZA,1712861657
148,wailua homesteads,22.0669,-159.378,25.24,92,75,1.54,US,1712861797
149,jayapura,-2.5333,140.7,24.66,90,97,0.47,ID,1712861767
150,gisborne,-38.6533,178.0042,19.22,76,100,4.16,NZ,1712862204
151,barcelos,41.5388,-8.6151,22.08,72,100,1.79,PT,1712862205
152,konosha,60.9736,40.257,5.74,71,66,5.9,RU,1712862205
153,conde,-7.2597,-34.9075,29.7,70,75,5.14,BR,1712862047
154,blackmans bay,-43.0167,147.3167,10.29,86,65,0.45,AU,1712861774
155,labrador city,52.9463,-66.9114,5.66,54,100,5.66,CA,1712861764
156,georgetown,5.4112,100.3354,28.86,83,20,1.03,MY,1712862059
157,fengxiang,47.5833,130.8333,8.79,84,60,2.41,CN,1712862205
158,al qusayr,34.5091,36.5798,14.95,82,0,0.43,SY,1712862205
159,mala,-12.6581,-76.6308,25.15,69,28,3.7,PE,1712862205
160,dudinka,69.4058,86.1778,-25.77,100,80,3.14,RU,1712861781
161,inhambane,-23.865,35.3833,22.99,78,75,4.63,MZ,1712861787
162,magadan,59.5667,150.8,-8.04,92,29,2.22,RU,1712862206
163,cunen,15.3375,-91.0269,29.78,46,56,4.2,GT,1712862206
164,lihue,21.9789,-159.3672,25.58,91,75,1.54,US,1712861684
165,kristiansund,63.1115,7.732,9.36,76,75,11.83,NO,1712862206
166,puerto ayora,-0.7393,-90.3518,29.98,94,27,3.13,EC,1712861776
167,rocky mountain house,52.3668,-114.9188,8.06,39,100,3.6,CA,1712862162
168,yoichi,43.2039,140.7703,7.16,63,100,3.77,JP,1712862206
169,kodiak,57.79,-152.4072,-0.27,93,100,2.06,US,1712861771
170,vangaindrano,-23.35,47.6,24.15,83,100,2.93,MG,1712862206
171,sawang daen din,17.4753,103.4575,27.27,100,6,2.27,TH,1712862206
172,port blair,11.6667,92.75,29.02,89,5,1.03,IN,1712861824
173,boguchany,58.3814,97.4531,-4.52,87,100,0.89,RU,1712862207
174,kunigal,13.0222,77.0267,26.29,58,0,5.29,IN,1712862207
175,gargalianoi,37.0667,21.6333,17.97,69,0,1.36,GR,1712862207
176,igarka,67.4667,86.5833,-28.32,100,53,2.24,RU,1712862207
177,ancud,-41.8697,-73.8203,14.72,50,0,2.28,CL,1712861861
178,al qusiyah,27.4402,30.8184,22.89,29,0,4.37,EG,1712862207
179,saint-joseph,-21.3667,55.6167,26.21,83,44,0.49,RE,1712862207
180,tateyama,34.9833,139.8667,14.5,84,100,5.17,JP,1712862207
181,crane,31.3974,-102.3501,24.27,17,0,4.51,US,1712861771
182,mossel bay,-34.1831,22.146,12.96,74,0,3.44,ZA,1712862207
183,bandarbeyla,9.4942,50.8122,28.39,80,40,3.46,SO,1712862207
184,atafu village,-8.5421,-172.5159,29.32,77,90,3.67,TK,1712861803
185,eyl,7.9803,49.8164,28.21,82,100,4.06,SO,1712862207
186,tazovsky,67.4667,78.7,-24.76,98,14,4.28,RU,1712861797
187,vuktyl,63.8567,57.3094,0.62,96,100,7.6,RU,1712862208
188,carloforte,39.145,8.3058,14.19,68,18,1.88,IT,1712862208
189,paungde,18.4833,95.5,30.5,44,24,0.53,MM,1712862208
190,ayr,55.4627,-4.6339,13.94,94,40,7.2,GB,1712862208
191,la ronge,55.1001,-105.2842,4.12,70,100,3.09,CA,1712861861
192,dwarka,22.2394,68.9678,25.32,86,5,5.67,IN,1712862007
193,qaqortoq,60.7167,-46.0333,-2.7,75,89,2.18,GL,1712861819
194,mokhsogollokh,61.4681,128.9203,-1.54,96,100,1.35,RU,1712862208
195,isafjordur,66.0755,-23.124,2.02,75,100,7.2,IS,1712861773
196,amga,60.8953,131.9608,-4.76,99,100,2.15,RU,1712861826
197,lesogorsk,56.0458,99.5136,-0.04,82,100,0.89,RU,1712862208
198,qarauyl,48.9451,79.255,0.5,82,100,6.93,KZ,1712862208
199,saipan,15.1355,145.701,26.39,83,75,6.17,MP,1712861805
200,turtas,58.9417,69.1325,-5.72,84,100,4.85,RU,1712862209
201,sola,-13.8833,167.55,28.06,79,100,4.99,VU,1712862209
202,midvagur,62.0511,-7.1939,9.46,93,100,5.66,FO,1712862209
203,muli,2.9167,73.5667,29.77,68,7,1.23,MV,1712862210
204,maile,-38.9466,-72.3727,21.34,28,0,2.28,CL,1712862210
205,ciudad dario,12.7314,-86.124,33.34,27,50,6.01,NI,1712862210
206,charters towers,-20.1,146.2667,16.08,65,0,2.62,AU,1712862210
207,santa elena de uairen,4.6167,-61.1333,31.32,32,93,3.24,VE,1712862210
208,new norfolk,-42.7826,147.0587,10.95,87,71,1.31,AU,1712861762
209,dzuunmod,48.2199,97.3744,-0.06,77,97,6.02,MN,1712862210
210,olonkinbyen,70.9221,-8.7187,-8.44,76,100,4.6,SJ,1712861796
211,palikir - national government center,6.9248,158.1611,26.9,81,100,8.53,FM,1712862210
212,lloydminster,53.2835,-110.0016,9.12,31,40,4.63,CA,1712862058
213,green river,41.5286,-109.4662,14.99,31,7,2.68,US,1712861929
214,kourou,5.1552,-52.6478,31.03,76,100,3.38,GF,1712862210
215,ola,59.5833,151.2833,-7.7,90,52,2.32,RU,1712862211
216,petropavlovskaya,45.0819,40.4512,15.54,66,99,4.73,RU,1712862211
217,kandi,11.1342,2.9386,36.46,16,100,1.28,BJ,1712862211
218,pisco,-13.7,-76.2167,25.03,73,0,4.12,PE,1712862205
219,chui,-33.6971,-53.4616,18.65,57,91,4.43,UY,1712862211
220,tsiombe,-25.3,45.4833,21.38,82,92,2.75,MG,1712862211
221,kingston,17.997,-76.7936,31.53,66,20,11.32,JM,1712861648
222,saint-pol-sur-mer,51.0312,2.3398,13.99,85,100,4.51,FR,1712862211
223,lerwick,60.1545,-1.1494,9.0,89,100,6.09,GB,1712862211
224,la gi,10.6667,107.7833,26.4,84,85,6.3,VN,1712862211
225,zaozersk,69.4005,32.4476,1.17,98,100,8.46,RU,1712862211
226,guaratingueta,-22.8164,-45.1925,31.0,48,40,2.06,BR,1712862209
227,vanino,49.0869,140.2543,8.85,77,41,0.53,RU,1712862212
228,port elizabeth,-33.918,25.5701,15.61,81,0,4.63,ZA,1712861589
229,phan rang-thap cham,11.5667,108.9833,24.6,83,37,2.12,VN,1712862212
230,copala,16.65,-98.9833,29.6,57,52,3.93,MX,1712862212
231,tukrah,32.5341,20.5791,17.08,78,100,5.15,LY,1712862212
232,oliveira,-20.6964,-44.8272,25.63,68,73,1.06,BR,1712862183
233,mamou,10.5,-12.0,31.21,34,100,0.9,GN,1712862212
234,beira,-19.8436,34.8389,27.05,74,100,4.63,MZ,1712862212
235,namibe,-15.1961,12.1522,22.54,76,1,4.42,AO,1712862212
236,ribadesella,43.4614,-5.0596,15.53,88,100,4.56,ES,1712862212
237,cabo san lucas,22.8909,-109.9124,27.56,41,100,0.45,MX,1712861628
238,shenjiamen,29.9576,122.298,14.16,100,100,3.09,CN,1712862212
239,sitka,57.0531,-135.33,3.94,70,20,3.09,US,1712861813
240,karratha,-20.7377,116.8463,27.03,71,29,3.35,AU,1712862133
241,malango,-2.9627,119.9001,20.33,99,100,0.81,ID,1712862213
242,coahuayana de hidalgo,18.7,-103.6583,31.09,43,1,3.92,MX,1712862213
243,likiep,9.8251,169.3107,26.83,74,100,9.22,MH,1712862213
244,selfoss,63.9331,-20.9971,2.93,98,100,4.77,IS,1712861792
245,al bawiti,28.3492,28.8659,21.63,29,0,4.0,EG,1712862213
246,vadso,70.0744,29.7487,1.49,86,40,6.69,NO,1712861816
247,dayton,39.7589,-84.1916,19.43,90,100,5.14,US,1712861922
248,saint croix,17.7397,-64.7388,25.53,82,40,2.68,VI,1712862213
249,touros,-5.1989,-35.4608,28.31,77,93,3.28,BR,1712861595
250,suzemka,52.3178,34.0689,13.44,56,99,3.64,RU,1712862213
251,mahibadhoo,3.7833,72.9667,29.41,71,81,1.72,MV,1712862213
252,sultanah,24.4926,39.5857,29.25,8,0,2.06,SA,1712862214
253,angel r. cabada,18.5833,-95.4333,29.28,40,88,6.45,MX,1712862214
254,yuzhno-kurilsk,44.0306,145.8556,4.65,76,100,4.58,RU,1712861815
255,lebu,-37.6167,-73.65,14.78,66,1,2.88,CL,1712861793
256,khanty-mansiysk,61.0042,69.0019,-4.94,58,0,5.0,RU,1712862214
257,puerto deseado,-47.7503,-65.8938,13.45,39,0,2.55,AR,1712861849
258,hun,29.1268,15.9477,20.4,22,29,4.29,LY,1712862214
259,puerto baquerizo moreno,-0.9,-89.6,28.55,79,40,3.09,EC,1712861842
260,kapuskasing,49.4169,-82.4331,18.05,34,75,6.17,CA,1712861582
261,yulinshi,38.2906,109.7494,14.84,48,0,3.35,CN,1712861787
262,tarko-sale,64.9225,77.785,-22.25,93,99,5.34,RU,1712862214
263,wad az zaki,14.4619,32.2065,29.59,8,18,5.73,SD,1712862215
264,constantia,44.1833,28.65,15.39,64,2,1.25,RO,1712861730
265,maroantsetra,-15.4333,49.7333,25.3,91,23,2.1,MG,1712862215
266,basco,20.4487,121.9702,25.98,83,1,6.03,PH,1712861861
267,colonia menno,-22.3667,-59.8167,21.9,96,100,5.88,PY,1712862075
268,maues,-3.3836,-57.7186,29.6,87,100,1.04,BR,1712862215
269,westport,41.1415,-73.3579,16.28,89,100,2.24,US,1712861986
270,vernon,50.2581,-119.2691,14.05,50,100,1.03,CA,1712861714
271,price,39.5994,-110.8107,17.84,26,0,2.65,US,1712862026
272,port lincoln,-34.7333,135.8667,14.14,75,100,3.2,AU,1712862215
273,christchurch,-43.5333,172.6333,11.06,95,100,7.72,NZ,1712862033
274,hithadhoo,-0.6,73.0833,29.12,73,100,2.46,MV,1712861761
275,rio gallegos,-51.6226,-69.2181,13.03,38,0,11.32,AR,1712862213
276,nikolayevsk-on-amure,53.1406,140.73,0.12,96,98,1.79,RU,1712862216
277,idri,27.5,13.2667,24.71,15,5,9.07,LY,1712862216
278,vredendal,-31.6683,18.5012,23.16,24,6,7.52,ZA,1712861862
279,mumford,5.2618,-0.759,27.89,80,100,5.92,GH,1712862216
280,bureya,49.8133,129.8131,8.86,51,100,3.39,RU,1712862216
281,howard springs,-12.497,131.047,23.95,84,100,2.03,AU,1712862216
282,oranjemund,-28.55,16.4333,25.58,33,2,5.98,NA,1712862216
283,pangody,65.85,74.4859,-17.58,87,100,8.18,RU,1712862216
284,sao jose da coroa grande,-8.8978,-35.1478,28.6,76,100,4.44,BR,1712861852
285,belmonte,-15.8631,-38.8828,28.37,71,100,3.9,BR,1712862164
286,kamakwie,9.5,-12.2333,35.25,30,99,3.34,SL,1712862217
287,gusinoozyorsk,51.2833,106.5,5.42,77,100,2.87,RU,1712862217
288,sinabang,2.4803,96.3801,27.12,84,100,1.46,ID,1712861778
289,avanigadda,16.0215,80.9181,27.75,75,0,2.49,IN,1712862217
290,turpan,42.9333,89.1667,19.25,23,0,0.36,CN,1712862217
291,vaxjo,56.8777,14.8091,11.81,97,75,6.17,SE,1712862217
292,mizan teferi,6.9833,35.5833,19.64,82,100,1.54,ET,1712862217
293,salalah,17.0151,54.0924,26.13,76,100,3.1,OM,1712862165
294,fada,9.5667,8.3,29.16,11,24,1.92,NG,1712862217
295,colon,9.3592,-79.9014,28.32,75,60,3.82,PA,1712862217
296,vom,9.7333,8.7833,26.74,8,84,3.1,NG,1712862217
297,aykhal,66.0,111.5,-28.05,100,100,2.68,RU,1712861829
298,zhezqazghan,47.7833,67.7667,4.22,55,0,6.2,KZ,1712862218
299,kruisfontein,-34.0033,24.7314,14.38,75,1,2.49,ZA,1712862218
300,cidade velha,14.9167,-23.6167,24.26,60,0,7.72,CV,1712862218
301,brookings,44.3114,-96.7984,10.19,76,100,8.75,US,1712861591
302,galliano,29.4422,-90.2992,21.11,56,75,9.77,US,1712861763
303,buchanan,5.8808,-10.0467,27.94,81,89,3.37,LR,1712862218
304,belyy yar,53.6039,91.3903,-2.06,80,20,3.0,RU,1712862218
305,pandan,14.0453,124.1694,25.52,87,99,3.3,PH,1712861860
306,hoshcha,50.6003,26.6744,11.63,70,0,2.59,UA,1712862218
307,khandyga,62.6667,135.6,-5.15,91,98,2.69,RU,1712861775
308,labasa,-16.4167,179.3833,24.84,91,22,1.68,FJ,1712862218
309,cabedelo,-6.9811,-34.8339,30.37,78,100,4.68,BR,1712861830
310,urangan,-25.3,152.9,17.89,90,11,2.68,AU,1712861813
311,suleja,9.1758,7.1808,33.12,14,53,0.93,NG,1712862219
312,santa ana,33.7456,-117.8678,32.2,52,20,4.12,US,1712861953
313,kerema,-7.9631,145.7785,25.13,92,100,2.64,PG,1712862219
314,lata,40.1629,-8.3327,18.84,73,89,1.55,PT,1712861809
315,bom jardim,-7.7958,-35.5872,26.14,80,99,4.01,BR,1712862166
316,port augusta,-32.5,137.7667,13.69,72,96,3.22,AU,1712862219
317,liberal,37.0431,-100.921,16.08,21,0,2.06,US,1712862149
318,ta`u,-14.2336,-169.5144,28.84,78,8,3.66,AS,1712861822
319,weno,7.4515,151.8468,27.67,81,100,5.78,FM,1712862219
320,shimoda,34.6667,138.95,12.84,87,68,5.1,JP,1712862219
321,kigorobya,1.6162,31.3089,22.9,78,57,1.78,UG,1712862219
322,stanley,54.868,-1.6985,13.73,81,40,5.14,GB,1712861776
323,iranduba,-3.2847,-60.1861,33.18,58,96,1.79,BR,1712862220
324,butembo,0.15,29.2833,16.61,91,74,1.44,CD,1712862220
325,kuopio,62.8924,27.677,5.97,65,0,4.63,FI,1712862220
326,california city,35.1258,-117.9859,26.27,26,0,3.09,US,1712862220
327,aiquile,-18.2041,-65.1807,20.23,66,100,5.02,BO,1712862220
328,aasiaat,68.7098,-52.8699,-4.65,83,100,1.31,GL,1712861802
329,ilhabela,-23.7781,-45.3581,25.34,87,79,2.01,BR,1712862068
330,celestun,20.8667,-90.4,26.89,52,95,8.09,MX,1712862220
331,keren,15.7778,38.4581,24.04,55,100,3.11,ER,1712862220
332,merizo village,13.2658,144.6691,26.99,91,100,5.96,GU,1712862220
333,ivins,37.1686,-113.6794,25.07,14,0,0.89,US,1712862221
334,keflavik,64.0049,-22.5624,7.95,87,75,8.75,IS,1712861810
335,yeniseysk,58.4497,92.1703,-9.47,83,100,3.13,RU,1712862221
336,nemuro,43.3236,145.575,4.19,96,100,7.14,JP,1712861777
337,shiyan,32.6475,110.7781,14.83,90,0,0.72,CN,1712862221
338,zakamensk,50.3741,103.2863,2.2,61,100,1.29,RU,1712862221
339,luganville,-15.5333,167.1667,24.8,87,16,0.89,VU,1712862221
340,gadzhiyevo,69.2551,33.3362,1.61,99,100,10.22,RU,1712862221
341,dongola,19.1667,30.4833,26.25,14,6,5.0,SD,1712862141
342,newman,37.3138,-121.0208,25.16,54,15,0.89,US,1712862221
343,darnah,32.767,22.6367,16.9,81,100,6.26,LY,1712862221
344,muleshoe,34.2265,-102.7238,16.8,28,0,4.35,US,1712862221
345,mahina,-17.5065,-149.489,28.87,74,75,0.0,PF,1712862222
346,villa dolores,-31.9459,-65.1896,15.93,82,100,1.57,AR,1712862222
347,lompoc,34.6391,-120.4579,28.34,63,0,3.6,US,1712861582
348,gashua,12.871,11.0482,32.24,7,95,4.77,NG,1712862222
349,fale old settlement,-9.3852,-171.2468,29.41,77,34,2.75,TK,1712861815
350,les anglais,18.3054,-74.2197,27.5,71,36,4.77,HT,1712862222
351,gannan,47.9147,123.5031,14.16,49,100,6.11,CN,1712862121
352,bamyan,34.75,67.25,4.09,55,100,2.71,AF,1712862222
353,puerto colombia,10.9878,-74.9547,35.05,70,6,10.95,CO,1712862222
354,woolgoolga,-30.1106,153.2007,17.93,78,14,5.41,AU,1712861859
355,bengkulu,-3.8004,102.2655,25.36,91,100,1.58,ID,1712862222
356,hailey,43.5196,-114.3153,15.18,31,0,4.12,US,1712861933
357,mukalla,14.5425,49.1242,26.76,71,99,1.12,YE,1712862223
358,baotou,40.6522,109.8222,14.13,25,3,1.52,CN,1712862223
359,sandpoint,48.2766,-116.5533,14.92,52,0,1.34,US,1712862223
360,porto novo,6.4965,2.6036,29.9,76,28,3.58,BJ,1712861659
361,mirabad,30.4362,61.8383,27.24,34,100,4.97,AF,1712862223
362,praia da vitoria,38.7333,-27.0667,20.14,73,40,2.7,PT,1712861792
363,susuman,62.7833,148.1667,-20.01,100,99,0.45,RU,1712861793
364,tabuk,17.4189,121.4443,23.29,90,61,0.93,PH,1712862223
365,novomoskovs'k,48.6167,35.2,22.65,44,98,2.45,UA,1712862223
366,polyarnyy,69.1989,33.4478,1.48,99,100,10.27,RU,1712861799
367,saint-philippe,-21.3585,55.7679,26.77,86,47,1.43,RE,1712861806
368,roma,43.2128,-75.4557,18.79,85,75,5.14,US,1712862220
369,hadibu,12.65,54.0333,28.07,77,98,2.33,YE,1712862223
370,kendari,-3.945,122.4989,23.96,97,85,1.21,ID,1712862071
371,bubaque,11.2833,-15.8333,24.15,73,0,9.3,GW,1712862224
372,nelson,-41.2833,173.2833,17.94,97,99,1.34,NZ,1712862224
373,rousinov,49.2013,16.8822,13.99,59,0,3.09,CZ,1712862224
374,tucuma,-0.1833,-50.05,28.9,79,99,3.34,BR,1712862224
375,ciudad del este,-25.5167,-54.6167,28.34,78,40,3.6,PY,1712862016
376,saint-pierre,-21.3393,55.4781,26.82,74,0,2.06,RE,1712862224
377,qarqaraly,49.4058,75.4742,-2.95,86,99,4.71,KZ,1712862224
378,sidi ifni,29.3797,-10.173,36.86,32,0,3.51,MA,1712862224
379,anshan,41.1236,122.99,11.4,70,13,5.36,CN,1712862224
380,ust-nera,64.5667,143.2,-14.47,97,85,2.87,RU,1712861807
381,ulanhot,46.0833,122.0833,12.35,61,100,6.73,CN,1712862224
382,shuangjiang,26.1547,109.7138,18.01,99,100,0.6,CN,1712862224
383,taoudenni,22.6783,-3.9836,32.66,10,0,4.32,ML,1712862225
384,uturoa,-16.7333,-151.4333,28.56,79,19,7.43,PF,1712861758
385,al quwayrah,29.8004,35.3116,21.0,58,0,2.44,JO,1712862225
386,illizi,26.4833,8.4667,25.18,21,0,8.12,DZ,1712862225
387,okulovka,58.4008,33.2908,10.31,49,100,5.76,RU,1712862225
388,astrakhan,46.3497,48.0408,14.93,82,66,4.0,RU,1712862225
389,kayenta,36.7278,-110.2546,16.05,20,1,1.22,US,1712862225
390,port moresby,-9.4431,147.1797,25.68,83,40,2.57,PG,1712862225
391,revda,56.801,59.9303,7.54,72,100,6.11,RU,1712861827
392,voinjama,8.4219,-9.7478,22.33,96,82,0.27,LR,1712862225
393,cambria,35.5641,-121.0808,26.9,64,0,2.25,US,1712862225
394,enewetak,11.3474,162.3373,26.96,79,88,10.35,MH,1712861767
395,salinopolis,-0.6136,-47.3561,27.79,85,100,3.67,BR,1712862134
396,colonia,50.9333,6.95,16.01,78,20,2.57,DE,1712861488
397,miyako,39.6367,141.9525,9.1,84,100,2.55,JP,1712862226
398,wagar,16.1525,36.2032,30.2,31,100,6.49,SD,1712862226
399,kolonia,50.9333,6.95,16.01,78,20,2.57,DE,1712861745
400,sheksna,59.21,38.5107,11.07,60,100,6.51,RU,1712862226
401,olesa de montserrat,41.5437,1.8941,18.57,55,0,2.06,ES,1712862226
402,tchintabaraden,15.8969,5.7985,33.41,11,96,1.92,NE,1712862227
403,ciudad lazaro cardenas,17.9583,-102.2,28.53,57,0,3.94,MX,1712862227
404,aromashevo,56.8602,68.6375,-1.06,77,88,4.54,RU,1712862227
405,paraty,-23.2178,-44.7131,25.8,90,89,1.57,BR,1712862036
406,jabat,7.75,168.9751,27.45,79,100,9.06,MH,1712862227
407,whakatane,-37.9585,176.9854,20.99,96,100,4.92,NZ,1712862227
408,qoryooley,1.7878,44.53,29.09,73,99,4.7,SO,1712862227
409,zaragoza,41.6561,-0.8773,20.25,39,0,2.06,ES,1712861708
410,kupang,-10.1667,123.5833,26.32,94,83,2.57,ID,1712861861
411,boundiali,9.5217,-6.4869,31.17,44,22,0.89,CI,1712862227
412,dakhla,23.6848,-15.958,24.01,60,0,5.14,EH,1712862227
413,sirte,31.2089,16.5887,17.53,80,1,3.8,LY,1712862228
414,kulhudhuffushi,6.6221,73.07,29.43,76,52,3.36,MV,1712862228
415,jiuquan,39.7432,98.5174,13.79,24,25,1.65,CN,1712862228
416,horta,38.5333,-28.6333,16.8,92,40,3.6,PT,1712861762
417,sisimiut,66.9395,-53.6735,-3.81,83,100,1.43,GL,1712861768
418,arauquita,7.0292,-71.4281,39.01,21,53,2.43,CO,1712862024
419,borrazopolis,-23.9411,-51.5875,31.46,41,100,1.2,BR,1712862170
420,lijiang,26.8688,100.2207,6.83,56,54,2.16,CN,1712862228
421,sal rei,16.1833,-22.9167,23.11,68,20,5.14,CV,1712862228
422,malpica,43.3228,-8.8105,21.09,55,100,0.25,ES,1712862228
423,mora,11.0461,14.1401,33.4,9,64,3.31,CM,1712862228
424,okhotsk,59.3833,143.3,-6.14,96,90,1.66,RU,1712861830
425,kayyerkan,69.3786,87.7439,-25.95,99,81,2.81,RU,1712862228
426,luderitz,-26.6481,15.1594,20.45,56,0,3.91,NA,1712861779
427,san pedro pochutla,15.7333,-96.4667,32.84,45,100,4.58,MX,1712862229
428,al kharj,24.155,47.3346,29.32,36,70,7.92,SA,1712862229
429,dunedin,-45.8742,170.5036,7.67,99,100,2.68,NZ,1712861691
430,turan,16.0678,108.2208,26.99,78,40,1.54,VN,1712862229
431,khanabad,36.6825,69.1156,21.33,51,100,0.99,AF,1712862229
432,north platte,41.1239,-100.7654,14.51,24,100,9.39,US,1712862034
433,balsas,-7.5325,-46.0356,29.88,73,95,0.34,BR,1712862010
434,the pas,53.8251,-101.2541,7.01,61,100,3.09,CA,1712862229
435,cuito,-12.3833,16.9333,17.53,95,100,1.3,AO,1712862229
436,acatlan de perez figueroa,18.5333,-96.6167,34.02,15,43,2.91,MX,1712862229
437,pastos bons,-6.6017,-44.0767,28.53,75,99,1.42,BR,1712862229
438,port alfred,-33.5906,26.891,15.1,84,5,1.79,ZA,1712861657
439,buinsk,54.95,48.2833,15.48,85,100,4.87,RU,1712862230
440,aban,56.67,96.06,-3.11,80,100,2.97,RU,1712862230
441,lubango,-14.9172,13.4925,20.92,73,5,2.06,AO,1712862230
442,beboto,8.2668,16.939,33.41,32,76,1.92,TD,1712862230
443,changwon,35.2281,128.6811,8.93,96,100,0.77,KR,1712862230
444,piti village,13.4626,144.6933,27.16,89,100,5.21,GU,1712862230
445,nizhnevartovsk,60.9344,76.5531,-15.99,66,0,1.0,RU,1712862230
446,la paz,-16.5,-68.15,11.99,75,75,3.09,BO,1712862008
447,zhangjiajie,29.1294,110.4783,14.03,97,14,1.38,CN,1712862230
448,margherita di savoia,41.3742,16.1502,17.28,70,88,5.04,IT,1712862230
449,fujin,47.26,132.0322,9.14,79,61,3.64,CN,1712862230
450,egilsstadir,65.2653,-14.3948,0.95,93,100,7.72,IS,1712861834
451,havre,49.5833,0.3333,14.22,88,75,1.54,FR,1712862231
452,singoli,24.9667,75.3,29.05,30,100,4.14,IN,1712862231
453,edd,13.9297,41.6925,28.61,80,0,4.71,ER,1712862231
454,trujillo,-8.116,-79.03,22.98,78,37,5.66,PE,1712861966
455,ormara,25.2088,64.6357,26.17,77,0,2.61,PK,1712862038
456,long beach,33.767,-118.1892,31.02,62,0,3.09,US,1712861587
457,kavaratti,10.5669,72.642,29.39,69,0,3.43,IN,1712861765
458,mugia,43.1041,-9.2179,19.39,74,100,1.16,ES,1712862231
459,martakert,40.2104,46.821,13.36,78,100,1.84,AZ,1712862231
460,inyonga,-6.7167,32.0667,18.8,97,88,0.99,TZ,1712862232
461,hauterive,46.0901,3.4459,13.42,73,71,1.19,FR,1712862232
462,benguela,-12.5763,13.4055,25.74,85,99,2.73,AO,1712862232
463,jining,35.405,116.5814,13.9,87,99,3.3,CN,1712862232
464,nizhniy ingash,56.2,96.53,-2.81,92,100,3.05,RU,1712862232
465,senanga,-16.1167,23.2667,23.46,73,99,1.3,ZM,1712862232
466,ishigaki,24.3448,124.1572,24.07,94,20,3.6,JP,1712862232
467,geraldton,-28.7667,114.6,21.23,60,1,6.69,AU,1712862169
468,purranque,-40.9167,-73.1667,20.71,37,0,0.99,CL,1712862225
469,sogndal,61.2283,7.1003,9.21,81,75,8.23,NO,1712862232
470,tindouf,27.6711,-8.1474,29.43,8,0,3.47,DZ,1712861793
471,dryden,49.7833,-92.7503,9.16,66,100,3.09,CA,1712862199
472,kalmunai,7.4167,81.8167,27.38,83,96,2.07,LK,1712861840
473,mount dora,28.8025,-81.6445,24.92,85,75,6.69,US,1712862233
474,nanao,37.05,136.9667,10.15,71,100,1.17,JP,1712862233
475,antsiranana,-12.2787,49.2917,25.61,91,7,1.57,MG,1712862233
476,wendlingen am neckar,48.6712,9.3763,14.69,49,0,1.54,DE,1712862233
477,richards bay,-28.783,32.0377,20.84,56,93,6.74,ZA,1712861803
478,tanda,26.55,82.65,28.89,18,14,2.57,IN,1712862233
479,raymondville,26.4815,-97.7831,31.16,21,0,3.59,US,1712862233
480,tanout,14.9709,8.8879,32.74,8,100,4.44,NE,1712862233
481,lazaro cardenas,17.9583,-102.2,28.53,57,0,3.94,MX,1712861786
482,grande prairie,55.1667,-118.8027,10.1,32,75,4.63,CA,1712862007
483,tyazhinskiy,56.116,88.524,-4.18,91,100,3.41,RU,1712862233
484,ust'-ilimsk,58.0006,102.6619,-5.31,93,100,0.89,RU,1712862233
485,emerald,-23.5333,148.1667,12.97,63,0,3.67,AU,1712862233
486,st. john's,47.5649,-52.7093,7.31,70,20,4.12,CA,1712861655
487,stanthorpe,-28.6667,151.95,11.9,96,0,2.56,AU,1712862234
488,severo-yeniseyskiy,60.3725,93.0408,-19.68,99,93,0.45,RU,1712861785
489,inari,68.906,27.0288,3.11,82,20,6.16,FI,1712862197
490,ilanskiy,56.2358,96.065,-2.95,92,100,3.74,RU,1712862234
491,arraial do cabo,-22.9661,-42.0278,29.98,74,40,4.12,BR,1712861799
492,nyurba,63.2842,118.3319,-19.18,98,82,2.7,RU,1712862234
493,macau,22.2006,113.5461,24.84,94,40,1.03,MO,1712862234
494,hengchun,22.0042,120.7439,24.65,83,6,3.08,TW,1712862134
495,kashmar,35.2383,58.4656,20.07,28,1,3.6,IR,1712862234
496,queenstown,-31.8976,26.8753,6.61,74,0,1.45,ZA,1712861792
497,troitsk,54.0979,61.5773,7.11,73,52,6.3,RU,1712862235
498,portland,45.5234,-122.6762,16.69,60,100,2.24,US,1712861969
499,xinyuan,37.3,99.0,2.23,19,100,0.46,CN,1712862235
500,chenzhou,25.8,113.0333,22.0,96,93,1.12,CN,1712862235
501,springs,-26.25,28.4,15.93,79,0,0.64,ZA,1712862235
502,dampit,-8.2116,112.7493,22.32,97,100,0.6,ID,1712862235
503,kallakkurichchi,11.7333,78.9667,27.12,78,9,2.16,IN,1712862235
504,alexandria,31.2156,29.9553,18.38,73,0,2.76,EG,1712861587
505,nsanje,-16.92,35.262,22.68,96,100,2.26,MW,1712862236
506,champerico,14.3,-91.9167,36.3,62,93,5.61,GT,1712862236
507,peniche,39.3558,-9.3811,20.87,75,94,4.55,PT,1712862236
508,ushibukamachi,32.1906,130.0228,15.38,88,100,2.83,JP,1712862236
509,valognes,49.5088,-1.4705,14.66,88,100,2.06,FR,1712862236
510,vega de alatorre,20.0333,-96.6333,27.03,48,0,5.79,MX,1712862236
511,nova odesa,47.3078,31.7851,20.71,48,6,1.48,UA,1712862236
512,el abiodh sidi cheikh,32.893,0.5484,16.28,21,0,7.85,DZ,1712862236
513,puerto san jose,13.9256,-90.8244,33.03,58,0,5.14,GT,1712862236
514,porciuncula,-20.9628,-42.0408,27.99,75,65,1.9,BR,1712862127
515,malakal,9.5334,31.6605,33.51,10,7,2.67,SS,1712862237
516,la passe,45.5549,-0.8967,17.13,87,99,3.29,FR,1712861782
517,saldanha,-33.0117,17.9442,19.03,53,6,5.48,ZA,1712862237
518,argo,37.6333,22.7333,16.82,43,93,3.86,GR,1712862237
519,waddan,29.1614,16.139,20.4,22,10,4.85,LY,1712862237
520,arno,60.1167,18.6333,7.1,82,82,6.93,SE,1712862237
521,colby,39.3958,-101.0524,15.46,24,0,8.75,US,1712862237
522,chilmari,25.5559,89.6715,27.65,39,100,2.71,BD,1712862237
523,xingcheng,40.6167,120.7167,6.91,90,21,5.37,CN,1712862064
524,aginskoye,51.1,114.53,3.72,76,0,3.61,RU,1712862238
525,mana,5.6592,-53.7767,29.01,71,99,4.54,GF,1712862238
526,fort bragg,35.139,-79.006,23.91,66,100,8.75,US,1712861803
527,harrismith,-28.2728,29.1295,8.19,88,28,1.9,ZA,1712862238
528,taulaga,-11.0553,-171.0883,29.72,74,92,3.41,AS,1712862238
529,orange cove,36.6244,-119.3137,27.7,47,0,2.57,US,1712862238
530,chacabuco,-34.6417,-60.4739,17.68,44,80,5.32,AR,1712862002
531,haiku-pauwela,20.9219,-156.3051,24.59,76,20,4.47,US,1712861805
532,andol,17.8131,78.0772,28.38,41,80,4.87,IN,1712862238
533,revel,43.4667,2.0,16.08,81,10,1.75,FR,1712862238
534,miles city,46.4083,-105.8406,11.54,30,0,2.57,US,1712862238
535,al kharijah,25.4514,30.5464,22.78,27,51,4.04,EG,1712862238
536,kuanda,56.3161,116.0806,-5.98,89,26,0.52,RU,1712862239
537,zhukovo,55.0318,36.744,12.83,56,1,2.5,RU,1712862239
538,cockburn town,21.4612,-71.1419,25.49,73,0,7.79,TC,1712862037
539,baykal'sk,51.5058,104.1469,3.1,100,100,1.09,RU,1712862239
540,iquique,-20.2208,-70.1431,23.02,82,44,2.79,CL,1712862238
541,manjo,4.8428,9.8217,23.0,96,100,1.05,CM,1712862239
542,cidreira,-30.1811,-50.2056,20.0,87,100,8.27,BR,1712862239
543,tura,25.5198,90.2201,24.96,36,100,1.29,IN,1712862239
544,tofol,5.3248,163.0078,27.08,85,100,6.85,FM,1712862239
545,betio village,1.358,172.9211,27.02,78,100,3.71,KI,1712862239
546,kollam,8.8833,76.6,28.74,75,100,1.13,IN,1712862239
547,vinh,18.6667,105.6667,23.2,98,25,1.16,VN,1712862240
548,palmer,42.1584,-72.3287,13.47,83,100,2.06,US,1712862240
549,mokopane,-24.1944,29.0097,17.13,64,100,3.53,ZA,1712862240
550,bedong,5.7274,100.5088,26.98,84,48,0.89,MY,1712862240
551,mersin,36.862,34.6509,16.32,85,8,1.61,TR,1712862240
552,okuta,9.2167,3.1833,33.19,34,100,1.85,NG,1712862240
553,baishan,41.9431,126.4286,5.42,93,55,1.45,CN,1712862240
554,kuna,43.4918,-116.4201,20.12,44,0,3.09,US,1712862044
555,igrejinha,-29.5744,-50.7903,22.06,99,100,2.03,BR,1712862067
556,miracema do tocantins,-9.5618,-48.3967,31.24,66,38,1.73,BR,1712862240
557,aldama,22.9167,-98.0667,30.83,19,8,5.73,MX,1712862240
558,tevriz,57.509,72.4042,-5.24,86,34,2.48,RU,1712862241
559,la mitra,8.8422,-79.7867,32.93,73,99,1.95,PA,1712862241
560,sambava,-14.2667,50.1667,26.29,88,8,0.82,MG,1712862241
561,ilha de mocambique,-15.0342,40.7358,28.68,78,100,4.93,MZ,1712862241
562,tionk essil,12.7856,-16.5217,29.03,48,0,7.34,SN,1712862241
563,bor,56.3567,44.0669,13.96,59,2,3.02,RU,1712862123
564,molchanovo,57.5817,83.7692,-10.89,85,7,2.53,RU,1712862241
565,burang,30.25,81.1667,-9.26,95,95,1.26,CN,1712862241
566,manta,-0.95,-80.7333,30.88,66,0,5.14,EC,1712862039
567,lospalos,-8.5186,127.0025,20.52,90,17,0.61,TL,1712862241
568,devin,41.7433,24.4,10.93,73,0,2.52,BG,1712862242
569,laguna,38.421,-121.4238,27.27,53,0,2.06,US,1712862012
570,nova xavantina,-14.6667,-52.35,29.82,67,18,0.9,BR,1712862022
571,san mariano,7.5,126.0,20.95,88,97,1.13,PH,1712862242
572,tortoli,39.9256,9.6572,10.87,80,86,3.36,IT,1712862242
573,happy valley-goose bay,53.3168,-60.3315,14.17,15,40,5.14,CA,1712861760
574,trondheim,63.4305,10.3951,6.11,96,100,0.89,NO,1712861780
575,nuriootpa,-34.4833,139.0,10.98,90,0,1.84,AU,1712862242
576,kuybyshev,55.4475,78.3218,-4.43,80,16,3.02,RU,1712862242
577,bodaybo,57.8506,114.1933,-1.66,98,100,1.38,RU,1712862243
578,bansang,13.4333,-14.65,38.99,15,71,0.68,GM,1712862243
579,sandnessjoen,66.0217,12.6316,4.29,75,0,1.54,NO,1712862243
580,boa vista,2.8197,-60.6733,34.99,38,75,8.23,BR,1712861658
581,amuntai,-2.4177,115.2494,23.61,96,100,0.61,ID,1712862243
582,bulayevo,54.9056,70.4439,-0.8,80,14,0.64,KZ,1712862243
583,plettenberg bay,-34.0527,23.3716,13.87,71,15,1.45,ZA,1712862243
584,lindley,-27.8791,27.9135,13.06,62,35,3.93,ZA,1712862243
585,nelson bay,-32.7167,152.15,17.22,93,96,4.47,AU,1712862243
586,gaillac,43.9016,1.8969,16.53,84,96,2.54,FR,1712862244
587,damavand,35.7178,52.065,7.44,66,89,2.74,IR,1712862244
588,kargasok,59.0556,80.8572,-13.91,93,9,1.79,RU,1712862244
589,inirida,3.8653,-67.9239,35.98,41,100,1.13,CO,1712862244
590,smara,26.7384,-11.6719,35.87,8,0,3.76,EH,1712862244
591,peniscola,40.3359,0.3613,16.11,63,5,1.85,ES,1712862244
592,panshan,41.1881,122.0494,13.26,63,60,7.87,CN,1712862056
593,aswan,24.0934,32.907,25.61,18,20,4.72,EG,1712862152
594,zhanaozen,43.3,52.8,15.74,46,5,10.54,KZ,1712862244
595,al bayda',32.7627,21.7551,11.32,82,100,1.57,LY,1712862244
596,celina,40.5489,-84.5702,18.72,98,100,4.56,US,1712862244
597,new plymouth,-39.0667,174.0833,19.34,94,100,9.87,NZ,1712862125
598,olney,39.1532,-77.0669,21.55,75,100,6.17,US,1712861947
599,omaruru,-21.4333,15.9333,26.79,26,99,2.67,NA,1712862245
600,hiratacho,35.4333,132.8167,13.01,94,46,2.57,JP,1712862245
601,pombal,-6.7703,-37.8017,30.88,61,100,2.87,BR,1712862125
